[{"name":"Klimental (Klimental\/Klymentiivka)","District":" Novohrad-Volynskyi","region":" Zhytomyr","geometry":"502141|274102"},{"name":"Malaja Subowschtschina Kol. (Zubowszczyna Kol.\/Mala Zubivshchyna)","District":" Korosten","region":" Zhytomyr","geometry":"505620|285000"},{"name":"Demmin (Dyminek)","District":" Szczecinek","region":" Zachodniopomorskie","geometry":"534640|165252"},{"name":"Preussisch Holland (Paslek)","District":" Elblag","region":" Warminsko-Mazurskie","geometry":"540400|193942"},{"name":"Sarnow","District":" Lukow","region":" Lubelskie","geometry":"515114|221759"},{"name":"Uchta (Kalevala)","District":" Kalevala","region":" Karelia","geometry":"651154|311116"},{"name":"Popow","District":" Poddebice","region":" Lodzkie","geometry":"514951|184345"},{"name":"Nowgorod (Veliky Novgorod)","District":" Veliky Novgorod","region":" Novgorod","geometry":"583127|311628"},{"name":"Swidniczek","District":" Lublin","region":" Lubelskie","geometry":"511533|223859"},{"name":"Cieplucha (lost)","District":" Piotrkow Trybunalski","region":" Lodzkie","geometry":"513707|193805"},{"name":"Kolonia Radzynkowska","District":" Rypin","region":" Kujawsko-Pomorskie","geometry":"530039|191553"},{"name":"Buchenhain\/Pojana Mikuli (Poiana Micului)","District":" Gurahumora","region":" Suceava","geometry":"474036|254536"},{"name":"Fraustadt (Wschowa)","District":" Wschowa","region":" Lubuskie","geometry":"514818|161907"},{"name":"Malindorf Kol. (Malindorf Kol.\/Yurivka)","District":" Korosten","region":" Zhytomyr","geometry":"504710|291710"},{"name":"Jasieniec","District":" Kozienice","region":" Mazowieckie","geometry":"513922|211624"},{"name":"Medwedewka (Medwedowka\/Medvedivka)","District":" Khmelnytskyi","region":" Khmelnytskyi","geometry":"492619|263211"},{"name":"Nowy Goniwilk (Goniwilk Kolonia)","District":" Garwolin","region":" Mazowieckie","geometry":"514909|214918"},{"name":"Lasocin","District":" Plock","region":" Mazowieckie","geometry":"522808|200934"},{"name":"Gross Schwarzsee (Czarne Wielkie)","District":" Drawsko Pomorskie","region":" Zachodniopomorskie","geometry":"533847|161639"},{"name":"Kurganowka (Kurhanowka\/Kurhanivka)","District":" Shepetivka","region":" Khmelnytskyi","geometry":"495622|271404"},{"name":"Stebniza Kol. (Marjanowka\/Stebnytsia)","District":" Zhytomyr","region":" Zhytomyr","geometry":"504200|283025"},{"name":"Kretschew (Krzeczow\/Krechiv)","District":" Volodymyr-Volynskyi","region":" Volyn","geometry":"504308|240541"},{"name":"Pienki Kol. (Pienki Kol.\/lost)","District":" Rivne","region":" Rivne","geometry":"505400|260052"},{"name":"Gross Wudschin (Wudzyn)","District":" Bydgoszcz","region":" Kujawsko-Pomorskie","geometry":"531921|180450"},{"name":"Michalow (Ofterdingen)","District":" Zyrardow","region":" Mazowieckie","geometry":"515820|201857"},{"name":"Budy Holendry (not found\/lost)","District":" Wloclawek","region":" Kujawsko-Pomorskie","geometry":"522205|185846"},{"name":"Krajanka (Krajanek\/Krajianki)","District":" Wieruszow","region":" Lodzkie","geometry":"511500|181640"},{"name":"Swetschnaja (Swieczna\/Svichna)","District":" Khmelnytskyi","region":" Khmelnytskyi","geometry":"493052|274338"},{"name":"Kraesem (Krzesin)","District":" Slubice","region":" Lubuskie","geometry":"520534|144555"},{"name":"Adelsheim (Novopetrivka)","District":" Zaporizhzhia","region":" Zaporizhzhia","geometry":"480506|345814"},{"name":"Kosak (Kozak\/Kozak)","District":" Rivne","region":" Rivne","geometry":"504043|270807"},{"name":"Minikowo (Staroleka-Minikowo-Marlewo)","District":" Poznan","region":" Wielkopolskie","geometry":"522101|165558"},{"name":"Starokorezkije (Futory Starokoreckie\/Staryi Korets)","District":" Rivne","region":" Rivne","geometry":"503500|271200"},{"name":"Brzezinki (lost)","District":" Nowy Dwor Mazowiecki","region":" Mazowieckie","geometry":"523130|203944"},{"name":"Kolybki (Kolybki)","District":" Wagrowiec","region":" Wielkopolskie","geometry":"525150|172329"},{"name":"Tunguda (lost)","District":" Belomorsk","region":" Karelia","geometry":"641331|341208"},{"name":"Polko","District":" Lipno","region":" Kujawsko-Pomorskie","geometry":"524942|191132"},{"name":"Parchau (Parchowo)","District":" Bytow","region":" Pomorskie","geometry":"541221|173958"},{"name":"Hopfengarten (Chmielniki)","District":" Bydgoszcz","region":" Kujawsko-Pomorskie","geometry":null},{"name":"Lettnin (Letnin)","District":" Pyrzyce","region":" Zachodniopomorskie","geometry":"530655|145853"},{"name":"Teresewo","District":" Konin","region":" Wielkopolskie","geometry":null},{"name":"Geistlich Kruschin (Kruszynki)","District":" Brodnica","region":" Kujawsko-Pomorskie","geometry":"531634|192148"},{"name":"Resnja (Ryznia\/Riznia)","District":" Korosten","region":" Zhytomyr","geometry":"504910|292045"},{"name":"Bozewo-Kmiecie","District":" Plonsk","region":" Mazowieckie","geometry":"524045|200944"},{"name":"Sorochinskiy","District":" ","region":" Qostanay","geometry":"532000|652300"},{"name":"Dendyja (Dendia)","District":" Gostynin","region":" Mazowieckie","geometry":"522206|192212"},{"name":"Bartkowizna","District":" Lomza","region":" Podlaskie","geometry":"530943|214543"},{"name":"Aleksandrow","District":" Turek","region":" Wielkopolskie","geometry":"520107|183925"},{"name":"Shary (Zary\/Zhary)","District":" Novohrad-Volynskyi","region":" Zhytomyr","geometry":"501713|272801"},{"name":"Seeheim (Osieczek)","District":" Wabrzezno","region":" Kujawsko-Pomorskie","geometry":"531724|190644"},{"name":"Kazimierowka","District":" Chelm","region":" Lubelskie","geometry":"510410|234610"},{"name":"Rosendamm (Mortsy)","District":" Fyodorovsky","region":" Saratov","geometry":"511710|475009"},{"name":"Miejska Dabrowa","District":" Kozienice","region":" Mazowieckie","geometry":"513612|211615"},{"name":"Ljubtscha (Lubcze\/Liubche)","District":" Lutsk","region":" Volyn","geometry":"505723|250712"},{"name":"Zimmerbude (Svetly)","District":" Baltiysk","region":" Kaliningrad","geometry":"544100|200800"},{"name":"Baschewa Kol. (Baszowa\/Bashova)","District":" Lutsk","region":" Volyn","geometry":"505330|251105"},{"name":"Trechel (Trzechel)","District":" Goleniow","region":" Zachodniopomorskie","geometry":"534357|145757"},{"name":"Showtnewoje (-\/Zhovtneve)","District":" Khmelnytskyi","region":" Khmelnytskyi","geometry":"494117|263433"},{"name":"Biernacice","District":" Poddebice","region":" Lodzkie","geometry":"515755|185226"},{"name":"Misteczko Kol. (-\/lost)","District":" Kovel","region":" Volyn","geometry":"510220|250215"},{"name":"Kolb (Peskovka)","District":" Zhirnovsk","region":" Volgograd","geometry":"504653|445021"},{"name":"Ballupoenen\/Ballen (Polyanskoye)","District":" Krasnoznamensk","region":" Kaliningrad","geometry":"545738|222347"},{"name":"Rzepiska (Piotrkow Kujawski gmina)","District":" Radziejow","region":" Kujawsko-Pomorskie","geometry":"522932|182415"},{"name":"Ponetow Gorny (Ponetow)","District":" Kolo","region":" Wielkopolskie","geometry":"521128|184724"},{"name":"Lukowo Kol. (Lukow Kol.\/lost)","District":" Volodymyr-Volynskyi","region":" Volyn","geometry":"505050|244434"},{"name":"Tischow (-\/Tyshiv)","District":" Korosten","region":" Zhytomyr","geometry":"505130|290430"},{"name":"Gogolin (Gogolin)","District":" Bydgoszcz","region":" Kujawsko-Pomorskie","geometry":"531649|174853"},{"name":"Deby (lost)","District":" Poddebice","region":" Lodzkie","geometry":"515756|185618"},{"name":"Laszczyn","District":" Rawa Mazowiecka","region":" Lodzkie","geometry":"514308|202235"},{"name":"Nikolsk (Hodycha\/Mykilsk)","District":" Zhytomyr","region":" Zhytomyr","geometry":"500742|281538"},{"name":"Makowiza (Makowiszcze\/lost)","District":" Kamin-Kashyrskyi","region":" Volyn","geometry":"514917|250747"},{"name":"Sargil (Luchove)","District":" Sovjetskyi","region":" Crimea","geometry":"451243|344941"},{"name":"Fedropol Kol. (Fedorpol Kol.\/lost)","District":" Volodymyr-Volynskyi","region":" Volyn","geometry":"505314|243050"},{"name":"Paruschke (Paruszka)","District":" Zlotow","region":" Wielkopolskie","geometry":"531600|165407"},{"name":"Kreutzberg (Glowaczow)","District":" Strzelin","region":" Dolnoslaskie","geometry":"503923|171035"},{"name":"Jozwow","District":" Lublin","region":" Lubelskie","geometry":"505725|222912"},{"name":"Laznowska Wola (Gruenbach\/Groembach)","District":" Tomaszow Mazowiecki","region":" Lodzkie","geometry":"513956|194513"},{"name":"Bertholdsdorf (Goscislaw)","District":" Sroda Slaska","region":" Dolnoslaskie","geometry":"510055|163005"},{"name":"Redtschiza (Redczyca\/Radchytsi)","District":" Korosten","region":" Zhytomyr","geometry":"512000|285000"},{"name":"Zawada","District":" Wloclawek","region":" Kujawsko-Pomorskie","geometry":"522903|191724"},{"name":"Koschmin (Kozmin Wielkopolski)","District":" Krotoszyn","region":" Wielkopolskie","geometry":"514936|172713"},{"name":"Niskinitschi (Niskienicze\/Nyzkynychi)","District":" Volodymyr-Volynskyi","region":" Volyn","geometry":"504423|241110"},{"name":"Schischkowzy (Shyshkivtsi)","District":" Khmelnytskyi","region":" Khmelnytskyi","geometry":"491015|264011"},{"name":"Drengfurth (Srokowo)","District":" Ketrzyn","region":" Warminsko-Mazurskie","geometry":"541244|213110"},{"name":"Gorodenka-Rudnja (Rudnia Horodenka\/Horodenka)","District":" Zhytomyr","region":" Zhytomyr","geometry":"502210|285105"},{"name":"Jaestersheim (Jastrzebia)","District":" Gora","region":" Dolnoslaskie","geometry":"514028|162901"},{"name":"Rogozno","District":" Leczna","region":" Lubelskie","geometry":"512319|225841"},{"name":"Subkowitschi (Zubkowicze\/Zubkovychi)","District":" Korosten","region":" Zhytomyr","geometry":"510206|274116"},{"name":"Klein Butschkau (Maly Buczek)","District":" Kepno","region":" Wielkopolskie","geometry":"510722|175735"},{"name":"Glaznow","District":" Kutno","region":" Lodzkie","geometry":"521450|190749"},{"name":"Roehrsdorf (Svor)","District":" Ceska Lipa","region":" Liberecky","geometry":"504800|143600"},{"name":"Tiflis\/Tbilisi (Tbilisi)","District":" ","region":" Tbilisi","geometry":"414300|444700"},{"name":"Oparczyska","District":" Lipno","region":" Kujawsko-Pomorskie","geometry":"524858|190342"},{"name":"Mostki (Mostki Kujawskie)","District":" Konin","region":" Wielkopolskie","geometry":null},{"name":"Anapa (Anapa)","District":" Anapa","region":" Krasnodar","geometry":"445320|371912"},{"name":"Deutschhause (Huzova)","District":" Olomouc","region":" Olomoucky","geometry":"494912|171753"},{"name":"Trebschen (Trzebiechow)","District":" Zielona Gora","region":" Lubuskie","geometry":"520128|154404"},{"name":"Glogowa (Glogowskie Holendry)","District":" Turek","region":" Wielkopolskie","geometry":"520603|182636"},{"name":"Michalinow (Huta Michalinow\/Stare Huta)","District":" Slupca","region":" Wielkopolskie","geometry":"520708|175616"},{"name":"Rudno","District":" Chelm","region":" Lubelskie","geometry":"510009|234136"},{"name":"Kauernik (Kurzetnik)","District":" Nowe Miasto Lubawskie","region":" Warminsko-Mazurskie","geometry":"532414|193428"},{"name":"Osny (-\/Osny)","District":" Korosten","region":" Zhytomyr","geometry":"511041|282130"},{"name":"Maranowska (not found\/lost)","District":" Kalisz","region":" Wielkopolskie","geometry":"513640|181740"},{"name":"Neu Mannheim (lost)","District":" Berezivka","region":" Odesa","geometry":"470707|302519"},{"name":"Katharinenhof (Yamskoye)","District":" Bagrationovsk","region":" Kaliningrad","geometry":"543326|203712"},{"name":"Sikucin","District":" Zdunska Wola","region":" Lodzkie","geometry":"514138|185244"},{"name":"Leitmeritz (Litomerice)","District":" Litomerice","region":" Ustecky","geometry":"503202|140751"},{"name":"Lublin-Dziesiata (Dziesiata)","District":" Lublin","region":" Lubelskie","geometry":"511243|223449"},{"name":"Dlugie","District":" Wloclawek","region":" Kujawsko-Pomorskie","geometry":"522505|191302"},{"name":"Tschutschewo (-\/Chucheve)","District":" Warash","region":" Rivne","geometry":"511927|260605"},{"name":"Saschtschitow (Zaszczytow\/Zashchytiv)","District":" Volodymyr-Volynskyi","region":" Volyn","geometry":"503855|243955"},{"name":"Romanowka\/Romanesty (Basarabeasca)","District":" Bender","region":" Basarabeasca","geometry":"461952|285833"},{"name":"Koenigseck (Kunzak)","District":" Jindrichuv Hradec","region":" Jihocesky","geometry":"490716|151125"},{"name":"Eichenfeld (Lyubov)","District":" Dnipro","region":" Dnipropetrovsk","geometry":"480645|345427"},{"name":"Mlynek","District":" Aleksandrow Kujawski","region":" Kujawsko-Pomorskie","geometry":"524810|184336"},{"name":"Althuette (Huta)","District":" Czarnkow-Trzcianka","region":" Wielkopolskie","geometry":"525207|164054"},{"name":"Mysliborz","District":" Konin","region":" Wielkopolskie","geometry":"521345|180333"},{"name":"Trzas (Trzons\/Duchland)","District":" Belchatow","region":" Lodzkie","geometry":"511720|191414"},{"name":"Szubsk Duzy","District":" Kutno","region":" Lodzkie","geometry":"521329|191332"},{"name":"Rudzisko (lost)","District":" Brodnica","region":" Kujawsko-Pomorskie","geometry":"531251|193907"},{"name":"Grzegorzewice","District":" Grodzisk Mazowiecki","region":" Mazowieckie","geometry":"515800|203728"},{"name":"Fachri\/Fachria\/Faclia (F\u0103clia)","District":" Constan\u021ba","region":" Constan\u021ba","geometry":"441651|280619"},{"name":"Dabrowa Dolna","District":" Kielce","region":" Swietokrzyskie","geometry":"505505|205932"},{"name":"Gorka (Gorka)","District":" Oborniki","region":" Wielkopolskie","geometry":"523538|164150"},{"name":"Kreising (Poznan-Krzesiny)","District":" Poznan","region":" Wielkopolskie","geometry":"522035|165910"},{"name":"Dobrowlany (Dobrowlany\/Dobrivliany)","District":" Stryi","region":" Lviv","geometry":"491800|235128"},{"name":"Rudolfshof (Karczemka\/lost)","District":" Lviv","region":" Lviv","geometry":"500923|241222"},{"name":"Radkowiza (Radkowica\/Radkovytsia)","District":" Khmelnytskyi","region":" Khmelnytskyi","geometry":"491443|262547"},{"name":"Rydoml (Rydoml\/Rydomyl)","District":" Kremenets","region":" Ternopil","geometry":"495449|253556"},{"name":"Radlin","District":" Opole Lubelskie","region":" Lubelskie","geometry":"510346|221152"},{"name":"Nasutow","District":" Lublin","region":" Lubelskie","geometry":"512144|223147"},{"name":"Kary-Chutor (lost)","District":" Mykolaiv","region":" Mykolaiv","geometry":"465038|314813"},{"name":"Skierki","District":" Przasnysz","region":" Mazowieckie","geometry":"525919|204921"},{"name":"Wickiau (Klintsowka)","District":" Zelenogradsk","region":" Kaliningrad","geometry":"545606|202721"},{"name":"Kochtein (Plodorodne)","District":" Krasnohvardiiske","region":" Crimea","geometry":"453222|342333"},{"name":"Grodzisko","District":" Lodz Wschodni","region":" Lodzkie","geometry":"514029|193110"},{"name":"Gonsawa\/Gonzawa (Gasawa)","District":" Znin","region":" Kujawsko-Pomorskie","geometry":"524601|174518"},{"name":"Paszek (lost)","District":" Krotoszyn","region":" Wielkopolskie","geometry":"514253|173728"},{"name":"Kahul\/Cahul (Cahul)","District":" Cahul","region":" Cahul","geometry":"455346|281121"},{"name":"Paranino (Paranin\/Paranyne)","District":" Novohrad-Volynskyi","region":" Zhytomyr","geometry":"505652|274018"},{"name":"Osowiec Szlachecki","District":" Przasnysz","region":" Mazowieckie","geometry":"530540|205647"},{"name":"Didlacken\/Dittlacken (Telmanovo)","District":" Chernyakhovsk","region":" Kaliningrad","geometry":"543400|214500"},{"name":"Przydatki Wolskie (Wolskie Holendry)","District":" Wloclawek","region":" Kujawsko-Pomorskie","geometry":"523148|190610"},{"name":"Klosterdorf\/Mikhailovka\/Kostirka (N in Zmiivka)","District":" Beryslav","region":" Kherson","geometry":"465238|333523"},{"name":"Lukom","District":" Slupca","region":" Wielkopolskie","geometry":"520755|175031"},{"name":"Naujeningken\/Neusiedel (Moskvino)","District":" Neman","region":" Kaliningrad","geometry":"545445|221113"},{"name":"Chutomir (Chotomyr Ur.\/Khutomyr)","District":" Kamin-Kashyrskyi","region":" Volyn","geometry":"514516|251340"},{"name":"Molsehnen (Kosmodemyanskoye)","District":" Gurevsk","region":" Kaliningrad","geometry":"544945|204136"},{"name":"Suslowka (Sujelowka Fut.\/Suslivka)","District":" Zhytomyr","region":" Zhytomyr","geometry":"494739|275516"},{"name":"Rosenberg (Olesno)","District":" Olesno","region":" Opolskie","geometry":"505235|182458"},{"name":"Retschetschina Kol. (Rzeczeczyzna Kol.\/Richechyna)","District":" Rivne","region":" Rivne","geometry":"504200|270500"},{"name":"Karlsruhe (Zrazkove)","District":" Vasylivka","region":" Zaporizhzhia","geometry":"470820|352335"},{"name":"Peretok (-\/Peretik)","District":" Zhytomyr","region":" Zhytomyr","geometry":"495742|274039"},{"name":"Rownopolje\/Rovnopol\/Rownopol (Ravnopol')","District":" Pavlodar","region":" Pavlodar","geometry":"524714|771541"},{"name":"Franzfeld (Nadlymanske)","District":" Odesa","region":" Odesa","geometry":"462237|301952"},{"name":"Charchow Panski","District":" Poddebice","region":" Lodzkie","geometry":"514948|185122"},{"name":"Rosental\/Valea. Trandafirilor (southern part of Colibabovca)","District":" Chisinau","region":" Leova","geometry":"463813|282620"},{"name":"Klonowo","District":" Radziejow","region":" Kujawsko-Pomorskie","geometry":"523853|183610"},{"name":"Hredkow (Gredkow)","District":" Chelm","region":" Lubelskie","geometry":"511355|232540"},{"name":"Niegolewo (Niegolewo)","District":" Nowy Tomysl","region":" Wielkopolskie","geometry":"522209|162559"},{"name":"Pomarzany (Pomarzany)","District":" Gniezno","region":" Wielkopolskie","geometry":"523904|172051"},{"name":"Karzec (Karzec)","District":" Gostyn","region":" Wielkopolskie","geometry":"514526|165408"},{"name":"Bojanitze (Bojanice)","District":" Gniezno","region":" Wielkopolskie","geometry":"523648|173116"},{"name":"Glinnoje (Glinne\/Hlynne)","District":" Sarny","region":" Rivne","geometry":"513130|272511"},{"name":"Ksawerow","District":" Kalisz","region":" Wielkopolskie","geometry":"514603|182125"},{"name":"Beniow (Benov)","District":" Prerov","region":" Olomoucky","geometry":"492503|173005"},{"name":"Libartowo (Libartowo)","District":" Poznan","region":" Wielkopolskie","geometry":"522250|171553"},{"name":"Horschitz (Horice)","District":" Jicin","region":" Kralovehradecky","geometry":"502154|153756"},{"name":"Opole","District":" Zgierz","region":" Lodzkie","geometry":"515945|190946"},{"name":"Rogahlen\/Gahlen (Rogale)","District":" Goldap","region":" Warminsko-Mazurskie","geometry":"541656|220714"},{"name":"Leninskoje (-\/Leninske\/Starokostiantyniv)","District":" Khmelnytskyi","region":" Khmelnytskyi","geometry":"495337|272636"},{"name":"Rudenski Maidan (Rudzienski Majdan\/lost)","District":" Rivne","region":" Rivne","geometry":"504921|263042"},{"name":"Dobra Wola (Gadowo)","District":" Nowy Dwor Mazowiecki","region":" Mazowieckie","geometry":"523410|203722"},{"name":"Gross-Skalitz (Skalice)","District":" Hradec Kralove","region":" Kralovehradecky","geometry":"501635|155220"},{"name":"Belchatow","District":" Belchatow","region":" Lodzkie","geometry":"512150|192145"},{"name":"Bobriza (Bobryca\/Bobrytsia)","District":" Novohrad-Volynskyi","region":" Zhytomyr","geometry":"504130|280800"},{"name":"Alexanderdorf (Aleksandriyskaya)","District":" Georgiyevsk","region":" Stavropol","geometry":"441342|432027"},{"name":"Raudnitz (Rudzienice)","District":" Ilawa","region":" Warminsko-Mazurskie","geometry":"533810|193920"},{"name":"Warnitz (Warnice)","District":" Pyrzyce","region":" Zachodniopomorskie","geometry":"531513|145938"},{"name":"Janowo","District":" Lipno","region":" Kujawsko-Pomorskie","geometry":"525437|191216"},{"name":"Beresnoje (Laszki\/Berezne)","District":" Khmelnytskyi","region":" Khmelnytskyi","geometry":"495211|270248"},{"name":"Marienheim (Marynopil)","District":" Polohy","region":" Zaporizhzhia","geometry":"472949|365048"},{"name":"Rossbach (Hranice)","District":" Cheb","region":" Karlovarsky","geometry":"501817|121033"},{"name":"Kijewo (Kijewo)","District":" Inowroclaw","region":" Kujawsko-Pomorskie","geometry":"525253|183147"},{"name":"Milejow","District":" Piotrkow Trybunalski","region":" Lodzkie","geometry":"512049|194230"},{"name":"Salzergut (Novy Svet)","District":" Olomouc","region":" Olomoucky","geometry":"493450|171626"},{"name":"Chmelewka (Chmielowka\/Khmelivka)","District":" Rivne","region":" Rivne","geometry":"504648|265947"},{"name":"Altstadt (Stare Mesto)","District":" Sumperk","region":" Olomoucky","geometry":"500942|165651"},{"name":"Klin Kol. (Klin Kol.\/Klyn)","District":" Dubno","region":" Rivne","geometry":"502617|253123"},{"name":"Sliwniki","District":" Zgierz","region":" Lodzkie","geometry":"515756|191518"},{"name":"Millowitz (Polska Cerekiew)","District":" Kedzierzyn-Kozle","region":" Opolskie","geometry":"501329|180738"},{"name":"Rudka (Rudka\/Rudka)","District":" Dubno","region":" Rivne","geometry":"502518|252339"},{"name":"Arkadia","District":" Lowicz","region":" Lodzkie","geometry":"520453|200028"},{"name":"Obolonie (Obolonie\/Obolonnia)","District":" Kalush","region":" Ivano-Frankivsk","geometry":"485700|240135"},{"name":"Ablesch\/Deutsch Ablesch (Prudy)","District":" Sovjetskyi","region":" Crimea","geometry":"451420|344205"},{"name":"Janowka (Janowka)","District":" Kluczbork","region":" Opolskie","geometry":"510919|180508"},{"name":"Zadada (Zasada)","District":" Jablonec nad Nisou","region":" Liberecky","geometry":"504152|151612"},{"name":"Kotowschtschina Kol. (Kotowszczyzna Kol.\/lost)","District":" Rivne","region":" Rivne","geometry":"505235|261640"},{"name":"Radelicz (Radelicz\/Radelichi)","District":" Yavoriv","region":" Lviv","geometry":"492827|235126"},{"name":"Drahan (Drahany)","District":" Prostejov","region":" Olomoucky","geometry":"492600|165351"},{"name":"Prerau (Prerov)","District":" Prerov","region":" Olomoucky","geometry":"492730|172704"},{"name":"Kutschmanowka (Kuczmanawka\/Kuchmanivka)","District":" Khmelnytskyi","region":" Khmelnytskyi","geometry":"495305|264254"},{"name":"Kawnice","District":" Konin","region":" Wielkopolskie","geometry":"521451|180902"},{"name":"Rozopol","District":" Kutno","region":" Lodzkie","geometry":"521947|190318"},{"name":"Mamuslie\/Mamuzli\/Casioarele\/Caseioarele (Cascioarele)","District":" Constanta","region":" Constanta","geometry":"435130|280604"},{"name":"Chorochorin (Chorochoryn\/Khorokhoryn)","District":" Lutsk","region":" Volyn","geometry":"504940|245715"},{"name":"Kisielewszczyzna Kol. (Kisielewszczyzna Kol.\/lost)","District":" Rivne","region":" Rivne","geometry":"503934|260600"},{"name":"Kapustjany (Kapustyany)","District":" Tulchyn","region":" Vinnytsia","geometry":"483206|290133"},{"name":"Borowiny","District":" Skierniewice","region":" Lodzkie","geometry":"520120|200613"},{"name":"Boguschin (Boguszyn)","District":" Leszno","region":" Wielkopolskie","geometry":"515637|162816"},{"name":"Kolybajewka (Janczynce\/Kolybaivka)","District":" Kamianets-Podilskyi","region":" Khmelnytskyi","geometry":"483819|263245"},{"name":"Weichselhorst (Wloki)","District":" Bydgoszcz","region":" Kujawsko-Pomorskie","geometry":"531449|181212"},{"name":"Gruenlas (Loucky)","District":" Sokolov","region":" Karlovarsky","geometry":"501226|124509"},{"name":"Lugowoje (Swinna\/Luhove)","District":" Khmelnytskyi","region":" Khmelnytskyi","geometry":"491954|270630"},{"name":"Ljubino-Malorossy (Lyubino-Malorossy)","District":" Lyubinskiy","region":" Omsk","geometry":"551209|725957"},{"name":"Oszczywilk (lost)","District":" Wloclawek","region":" Kujawsko-Pomorskie","geometry":"523757|190950"},{"name":"Gradowo Holendry (not found\/lost)","District":" Wloclawek","region":" Kujawsko-Pomorskie","geometry":"522639|190414"},{"name":"Parespa (Parespa\/lost)","District":" Warash","region":" Rivne","geometry":"512036|261834"},{"name":"Gutischtsche (Hutyszcze\/Mykhailivka)","District":" Zhytomyr","region":" Zhytomyr","geometry":"501408|282445"},{"name":"Tomaszewo","District":" Lipno","region":" Kujawsko-Pomorskie","geometry":null},{"name":"Zuellichau (Sulechow)","District":" Zielona Gora","region":" Lubuskie","geometry":"520504|153655"},{"name":"Nawarzyce","District":" Jedrzejow","region":" Swietokrzyskie","geometry":"503039|201626"},{"name":"Spaszczyzna (Spaszczyzna\/lost)","District":" Volodymyr-Volynskyi","region":" Volyn","geometry":"505450|241556"},{"name":"Dziewiatka","District":" Turek","region":" Wielkopolskie","geometry":"515547|183034"},{"name":"Chotow (Chotow)","District":" Ostrow Wielkopolski","region":" Wielkopolskie","geometry":"514140|180340"},{"name":"Nowaja Rudnja Kol. (Nowa Rudnia Kol.\/lost)","District":" Zhytomyr","region":" Zhytomyr","geometry":"503030|280300"},{"name":"Gozdy","District":" Sierpc","region":" Mazowieckie","geometry":"525103|192912"},{"name":"Kose (Kozy)","District":" Bytow","region":" Pomorskie","geometry":"542351|173646"},{"name":"Kunzendorf (Witoszewo)","District":" Ilawa","region":" Warminsko-Mazurskie","geometry":"534945|193042"},{"name":"Bergau (Tsvetkovo)","District":" Gurevsk","region":" Kaliningrad","geometry":"543720|202700"},{"name":"Landskrone (lost)","District":" German National District","region":" Altai Krai","geometry":"531015|783847"},{"name":"Neu-Speyer (Starooleksiivka)","District":" Voznesensk","region":" Mykolaiv","geometry":"471649|312150"},{"name":"Fedotowka\/Fyodotovka\/Kogaly (Fedotowka)","District":" Pavlodar","region":" Pavlodar","geometry":"523631|772033"},{"name":"Bumbeln (Ilyino)","District":" Gusev","region":" Kaliningrad","geometry":"543933|221638"},{"name":"Piatek","District":" Leczyca","region":" Lodzkie","geometry":"520335|192722"},{"name":"Osowie (Osowia)","District":" Kolo","region":" Wielkopolskie","geometry":"521737|184422"},{"name":"Urtschitz (Urcice)","District":" Prostejov","region":" Olomoucky","geometry":"492550|170423"},{"name":"Dobra","District":" Zgierz","region":" Lodzkie","geometry":"515156|193305"},{"name":"Kadgiehnen (Prudy)","District":" Gurevsk","region":" Kaliningrad","geometry":"544611|204840"},{"name":"Kamien Kotowy","District":" Lipno","region":" Kujawsko-Pomorskie","geometry":"524409|192604"},{"name":"Zittow (Citov)","District":" Prerov","region":" Olomoucky","geometry":null},{"name":"Trzeszczon","District":" Wloclawek","region":" Kujawsko-Pomorskie","geometry":"522102|190104"},{"name":"Klein Rastadt\/Lenintal (Podillia)","District":" Voznesensk","region":" Mykolaiv","geometry":"471739|310758"},{"name":"Kruszczewo","District":" Plock","region":" Mazowieckie","geometry":"523753|194315"},{"name":"Dryglow (Dryhlow\/Dryhliv)","District":" Zhytomyr","region":" Zhytomyr","geometry":"500645|281052"},{"name":"Oszczywilk","District":" Kolo","region":" Wielkopolskie","geometry":"520800|185356"},{"name":"Orloff\/Marienburg (Orlove)","District":" Beryslav","region":" Kherson","geometry":"472741|331330"},{"name":"Kaschewka (Kaszowka\/Kashivka)","District":" Kovel","region":" Volyn","geometry":"511000|251849"},{"name":"Lottyn (Lotyn)","District":" Chojnice","region":" Pomorskie","geometry":"534159|174402"},{"name":"Barrikady (Barrikada)","District":" Isilkul","region":" Omsk","geometry":"544702|713228"},{"name":"Zabrzeg (Zabrzeg)","District":" Bielsko-Biala","region":" Slaskie","geometry":"495452|185633"},{"name":"Muischezeem (Muizciems)","District":" ","region":" Brocenu","geometry":"564616|222847"},{"name":"Romitten (Slavyanovka)","District":" Bagrationovsk","region":" Kaliningrad","geometry":"542737|204024"},{"name":"Schoenfeld (Lutogniewice)","District":" Zgorzelec","region":" Dolnoslaskie","geometry":"510031|145800"},{"name":"Slobodka-Ochrimowezkaja (Ochrymowiecka Slobodka\/Slobidka-Okhrimovetska)","District":" Khmelnytskyi","region":" Khmel","geometry":"271512|x"},{"name":"Wilcza Wola (Wilcza Wola)","District":" Kolbuszowa","region":" Podkarpackie","geometry":"502137|215427"},{"name":"Kamionka Wielka (Kamionka Wielka)","District":" Nowy Sacz","region":" Malopolskie","geometry":"493415|204916"},{"name":"Austy (Usti)","District":" Prerov","region":" Olomoucky","geometry":"493100|174559"},{"name":"Ignacow","District":" Grojec","region":" Mazowieckie","geometry":"514529|203841"},{"name":"Tarnowa (Tuliszkow gmina)","District":" Turek","region":" Wielkopolskie","geometry":"520538|182158"},{"name":"Majkow Duzy","District":" Piotrkow Trybunalski","region":" Lodzkie","geometry":"512515|193541"},{"name":"Kossowo (Kosowo)","District":" Gostyn","region":" Wielkopolskie","geometry":"515345|165447"},{"name":"Gross Blandau (Bledowo)","District":" Ketrzyn","region":" Warminsko-Mazurskie","geometry":"541650|211942"},{"name":"Altmark (Stary Targ)","District":" Sztum","region":" Pomorskie","geometry":"535522|191012"},{"name":"Elizin (Elizen)","District":" Gostynin","region":" Mazowieckie","geometry":"522832|193020"},{"name":"Szczuchnia","District":" Lubartow","region":" Lubelskie","geometry":"513417|222032"},{"name":"Lysogorka (Lysogorka\/Lysohirka)","District":" Kamianets-Podilskyi","region":" Khmelnytskyi","geometry":"495956|263958"},{"name":"Glodowo","District":" Lipno","region":" Kujawsko-Pomorskie","geometry":"524947|191419"},{"name":"Briesen (Brzezno)","District":" Swidwin","region":" Zachodniopomorskie","geometry":"534158|154730"},{"name":"Slobodka-Kadijewskaja (Slobodka Kadyjowiecka\/Slobidka-Kadyivska)","District":" Khmelnytskyi","region":" Khmelnytskyi","geometry":"491514|264953"},{"name":"Ruden (Rudna)","District":" Zlotow","region":" Wielkopolskie","geometry":"531924|171435"},{"name":"Hradischt (Hradiste)","District":" Pisek","region":" Jihocesky","geometry":"491752|140722"},{"name":"Neu-Schoenwiese\/Kol. Dmitrowka (Lezhyne)","District":" Zaporizhzhia","region":" Zaporizhzhia","geometry":"474825|352128"},{"name":"Collnischken\/Kollnischken\/Burgfelde (Kolniszki)","District":" Goldap","region":" Warminsko-Mazurskie","geometry":"541629|222312"},{"name":"Werchnjaja Rudnja (Werchnjaja Rudnja\/Verkhnia Rudnia)","District":" Korosten","region":" Zhytomyr","geometry":"513355|283130"},{"name":"Nishnjaja Rudnja (Rudnia Niz\/Nyzhnia Rudnia)","District":" Korosten","region":" Zhytomyr","geometry":"513340|283630"},{"name":"Cammin in Pommern (Kamien Pomorski)","District":" Kamien Pomorski","region":" Zachodniopomorskie","geometry":"535800|144624"},{"name":"Cerhowitz (Cerhovice)","District":" Beroun","region":" Stredocesky","geometry":"495059|135006"},{"name":"Gnadental\/Vodjanoje (Mayak)","District":" Kryvyi Rih","region":" Dnipropetrovsk","geometry":"480212|334218"},{"name":"Dulsk (Dulsk)","District":" Inowroclaw","region":" Kujawsko-Pomorskie","geometry":"524520|182031"},{"name":"Zlotniki","District":" Poddebice","region":" Lodzkie","geometry":"515224|190411"},{"name":"Olgenfeld\/Otradowka (Otradovka)","District":" Azov","region":" Rostov","geometry":"493948|380537"},{"name":"Arkadak (Arkadak)","District":" Arkadak","region":" Saratov","geometry":"515624|433001"},{"name":"Wierzbischno I Kol. (Wierzbiczno I Kol. \/lost)","District":" Kovel","region":" Volyn","geometry":"505816|243554"},{"name":"Zbose (Zboze)","District":" Sepolno Krajenskie","region":" Kujawsko-Pomorskie","geometry":"532330|173135"},{"name":"Piastow (Franzdorf I)","District":" Garwolin","region":" Mazowieckie","geometry":"514834|214741"},{"name":"Oszczywilk","District":" Radziejow","region":" Kujawsko-Pomorskie","geometry":"523301|183701"},{"name":"Swiesz (Swisz)","District":" Radziejow","region":" Kujawsko-Pomorskie","geometry":"523247|183339"},{"name":"Legitten (Turgenevo)","District":" Polessk","region":" Kaliningrad","geometry":"545038|210125"},{"name":"Sieniec","District":" Wielun","region":" Lodzkie","geometry":"511422|184012"},{"name":"Beduny (Bieduny\/Veselivka)","District":" Korosten","region":" Zhytomyr","geometry":"511420|285035"},{"name":"Janki (lost)","District":" Grojec","region":" Mazowieckie","geometry":"514756|204016"},{"name":"Neustadt (Nowe Miasto nad Warta)","District":" Sroda Wielkopolska","region":" Wielkopolskie","geometry":"520520|172433"},{"name":"Rostan (Wolka Chrypska\/Rostan)","District":" Kovel","region":" Volyn","geometry":"513600|234307"},{"name":"Czarnokonce (Czarnokonce Wielki\/Velyki Chornokintsi)","District":" Chortkiv","region":" Ternopil","geometry":"485816|260148"},{"name":"Krole Parcele (Wilhelmsdorf)","District":" Ostrow Mazowiecka","region":" Mazowieckie","geometry":"525022|220635"},{"name":"Gassoewen (Gasewo)","District":" Wegorzewo","region":" Warminsko-Mazurskie","geometry":"541018|220132"},{"name":"Schoenberg OL (Sulikow)","District":" Zgorzelec","region":" Dolnoslaskie","geometry":"510432|150403"},{"name":"Zoppot (Sopot)","District":" Sopot","region":" Pomorskie","geometry":"542622|183358"},{"name":"Beresno (Berezne\/Berezne)","District":" Rivne","region":" Rivne","geometry":"510008|264530"},{"name":"Klepatschi (Klepacze\/Klepachi)","District":" Shepetivka","region":" Khmelnytskyi","geometry":"502927|265726"},{"name":"Wysoka Wielka&Duza","District":" Kutno","region":" Lodzkie","geometry":"521130|191312"},{"name":"Marjanowka (Marjanowka\/Marianivka)","District":" Kamianets-Podilskyi","region":" Khmelnytskyi","geometry":"485124|261540"},{"name":"Ochnowka (Ochnowka\/Okhnivka)","District":" Volodymyr-Volynskyi","region":" Volyn","geometry":"505550|241900"},{"name":"Bolotkowzy (Bolotkowce\/Bolotkivtsi)","District":" Rivne","region":" Rivne","geometry":"501502|262132"},{"name":"Krutsch-Chutor (Kruch)","District":" Azovsky Nemetsky National District","region":" Omsk","geometry":null},{"name":"Roshischtsche (Rozyszcze\/Rozhyshche)","District":" Lutsk","region":" Volyn","geometry":"505430|251542"},{"name":"Kontschi-Schawwa (Krasnodarka)","District":" Krasnohvardiiske","region":" Crimea","geometry":"453622|340522"},{"name":"Marianowka (Marjanowka\/lost\/Zdolbuniv)","District":" Rivne","region":" Rivne","geometry":"503000|262229"},{"name":"Jeziorki","District":" Brodnica","region":" Kujawsko-Pomorskie","geometry":"531105|192250"},{"name":"Bielsk (Bielsk)","District":" Golub-Dobrzyn","region":" Kujawsko-Pomorskie","geometry":"530809|185402"},{"name":"Mirin (Miryn\/Myryn)","District":" Kovel","region":" Volyn","geometry":"511147|250836"},{"name":"Krasnik","District":" Krasnik","region":" Lubelskie","geometry":"505517|221313"},{"name":"Silanowize Kol. (Silanowica Kol.\/lost)","District":" Dubno","region":" Rivne","geometry":"502445|251850"},{"name":"Lenie Male","District":" Lipno","region":" Kujawsko-Pomorskie","geometry":"523953|192224"},{"name":"Schoenaich (Piekne Katy)","District":" Nowa Sol","region":" Lubuskie","geometry":"514559|155100"},{"name":"Klein-Chutor (lost)","District":" Nikopol","region":" Dnipropetrovsk","geometry":"474621|343130"},{"name":"Paprotnia","District":" Zdunska Wola","region":" Lodzkie","geometry":"513414|185601"},{"name":"Jozefin Kol. (Jozefin Kol.\/lost\/Kivertsi)","District":" Lutsk","region":" Volyn","geometry":"505500|253840"},{"name":"Wladyslawow","District":" Piotrkow Trybunalski","region":" Lodzkie","geometry":"512717|193843"},{"name":"Biltsche Kol. (Bilcze Kol.\/lost)","District":" Dubno","region":" Rivne","geometry":"503118|251717"},{"name":"Feodorowka (Fedorovka)","District":" ","region":" Qostanay","geometry":"541400|653000"},{"name":"Rochow","District":" Leczyca","region":" Lodzkie","geometry":"521147|190026"},{"name":"Gaberowka Kol. (Haborowka Kol.\/lost)","District":" Zhytomyr","region":" Zhytomyr","geometry":"502600|281500"},{"name":"Krasny-Popas\/Rotweide (lost)","District":" Krasny Sulin","region":" Rostov","geometry":"474832|394105"},{"name":"Chmielow Kol. (Chmielow Kol.\/lost)","District":" Volodymyr-Volynskyi","region":" Volyn","geometry":"504614|242700"},{"name":"Ciemierow Kolonia (Lystewska)","District":" Wrzesnia","region":" Wielkopolskie","geometry":"520614|174352"},{"name":"Kroeben (Krobia)","District":" Gostyn","region":" Wielkopolskie","geometry":"514613|165841"},{"name":"Lado Kol. (Lado Kol.\/lost\/Sarny)","District":" Sarny","region":" Rivne","geometry":"510542|263052"},{"name":"Kischewo (Kiszewo)","District":" Oborniki","region":" Wielkopolskie","geometry":"524047|164022"},{"name":"Wygow (Wyhow\/Vyhiv)","District":" Korosten","region":" Zhytomyr","geometry":"505602|282838"},{"name":"Elzanowo","District":" Lipno","region":" Kujawsko-Pomorskie","geometry":"524748|191006"},{"name":"Makowa Kol. (Makow Kol.\/lost)","District":" Volodymyr-Volynskyi","region":" Volyn","geometry":"505030|245220"},{"name":"Liebenow (Lubieniow)","District":" Choszczno","region":" Zachodniopomorskie","geometry":"531313|153637"},{"name":"Korczakownia","District":" Brodnica","region":" Kujawsko-Pomorskie","geometry":"530904|192604"},{"name":"Karlswerder (Skrynupie\/lost)","District":" Sakiai","region":" Marijampole","geometry":"545630|224945"},{"name":"Troitzkoje (Troitskoye)","District":" Azovsky Nemetsky National District","region":" Omsk","geometry":"545152|731810"},{"name":"Klonowo (Nowy Swiat)","District":" Pleszew","region":" Wielkopolskie","geometry":"515148|173604"},{"name":"Tustanowice (Tustanowice\/Boryslav)","District":" Drohobych","region":" Lviv","geometry":"491700|232700"},{"name":"Dobbitz (Dobetice)","District":" Usti nad Labem","region":" Ustecky","geometry":"504030|140322"},{"name":"Dabrowka","District":" Radziejow","region":" Kujawsko-Pomorskie","geometry":"523256|183839"},{"name":"Donawitz (Stanovice)","District":" Karlovy Vary","region":" Karlovarsky","geometry":"500955|125226"},{"name":"Sucharybnice (not found\/lost)","District":" Wloclawek","region":" Kujawsko-Pomorskie","geometry":"523745|191011"},{"name":"Janina Kol. (Janina Kol.\/lost)","District":" Lutsk","region":" Volyn","geometry":"503044|244610"},{"name":"Rozkosz (Roskosz)","District":" Chelm","region":" Lubelskie","geometry":"510900|234126"},{"name":"Nadeshda Kol. (Nadzieja Kol.\/lost)","District":" Rivne","region":" Rivne","geometry":"502825|260800"},{"name":"Vorwerk Holm (Drezdenko)","District":" Strzelce-Drezdenko","region":" Lubuskie","geometry":"525019|154943"},{"name":"Neuhof (Novodvorivka)","District":" Polohy","region":" Zaporizhzhia","geometry":"472628|365800"},{"name":"Kellersheim (Dobrozhanove)","District":" Odesa","region":" Odesa","geometry":"463233|301957"},{"name":"Teremno Kol. (Teremno Kol.\/Lutsk-Teremno)","District":" Lutsk","region":" Volyn","geometry":"504513|252315"},{"name":"Rehwalde (lost)","District":" Nowy Dwor Gdanski","region":" Pomorskie","geometry":"541500|190600"},{"name":"Wkra","District":" Ciechanow","region":" Mazowieckie","geometry":"524734|201740"},{"name":"Lublin-Dominow (Dominow)","District":" Lublin","region":" Lubelskie","geometry":"511054|223602"},{"name":"Shurawlinoje Kol. (Szajno Kol.\/Zhuravlyne)","District":" Kovel","region":" Volyn","geometry":"511817|243105"},{"name":"Zawadowka","District":" Chelm","region":" Lubelskie","geometry":"510744|232538"},{"name":"Nepomucenow","District":" Tomaszow Mazowiecki","region":" Lodzkie","geometry":"513929|195928"},{"name":"Nesteljewka (Nesteliivka)","District":" Lozivskyi","region":" Kharkiv","geometry":"485138|361440"},{"name":"Karasubasar (Bilohirsk)","District":" Bilohirsk","region":" Crimea","geometry":"450331|343618"},{"name":"Altraden (Kolodziejewo)","District":" Inowroclaw","region":" Kujawsko-Pomorskie","geometry":"524236|180202"},{"name":"Belin","District":" Plonsk","region":" Mazowieckie","geometry":"523924|203951"},{"name":"Czerwonken\/Rotbach (Czerwonka)","District":" Elk","region":" Warminsko-Mazurskie","geometry":"535307|221404"},{"name":"Braunsberg (Braniewo)","District":" Braniewo","region":" Warminsko-Mazurskie","geometry":"542259|194927"},{"name":"Skupne","District":" Konin","region":" Wielkopolskie","geometry":"522627|180805"},{"name":"Sulshinowka\/Luzi Kol. (Sulzynowka Kol.\/Sulzhynivka)","District":" Zhytomyr","region":" Zhytomyr","geometry":"501146|280510"},{"name":"Tschernewzy (Chernivtsi)","District":" Mohyliv-Podilskyi","region":" Vinnytsia","geometry":"483235|280729"},{"name":"Karlsfeld (Zelenaya Roshcha)","District":" Stepnoye","region":" Stavropol","geometry":"441724|442605"},{"name":"Leski (Liski\/Lisky)","District":" Volodymyr-Volynskyi","region":" Volyn","geometry":"505938|241651"},{"name":"Adolfow","District":" Zgierz","region":" Lodzkie","geometry":"515603|192142"},{"name":"Sabolotje (Zablocie\/Zabolottia)","District":" Kovel","region":" Volyn","geometry":"513808|241617"},{"name":"Nagodow","District":" Kutno","region":" Lodzkie","geometry":"521126|192217"},{"name":"Stefanow","District":" Zgierz","region":" Lodzkie","geometry":"515458|192559"},{"name":"Usitschi (Usicze\/Usychi)","District":" Lutsk","region":" Volyn","geometry":"504546|250451"},{"name":"Gross Jaenowitz (Janowice Duze)","District":" Legnica","region":" Dolnoslaskie","geometry":"510827|160600"},{"name":"Albrechtsdorf\/Albersdorf (Wojciechow)","District":" Olesno","region":" Opolskie","geometry":"505348|182328"},{"name":"Bogumilow Kol. (Bogumilow Kol.\/lost)","District":" Volodymyr-Volynskyi","region":" Volyn","geometry":"504515|245310"},{"name":"Zabieniec","District":" Kutno","region":" Lodzkie","geometry":"521957|192945"},{"name":"Nemirinzy (Niemierzynce\/Nemyryntsi\/Horodok)","District":" Khmelnytskyi","region":" Khmelnytskyi","geometry":"492228|262904"},{"name":"Ustilug (Uscilug\/Ustyluh)","District":" Volodymyr-Volynskyi","region":" Volyn","geometry":"505142|240915"},{"name":"Steegen (Stegna)","District":" Nowy Dwor Gdanski","region":" Pomorskie","geometry":"541935|190652"},{"name":"Brzozogaj (Brzozogaj)","District":" Gniezno","region":" Wielkopolskie","geometry":"523544|172850"},{"name":"Sokolez (Sokilets)","District":" Vinnytsia","region":" Vinnytsia","geometry":"485216|284315"},{"name":"Kiscinne","District":" Nowy Dwor Mazowiecki","region":" Mazowieckie","geometry":"521934|203749"},{"name":"Rudnia Nowa Kol. (Rudnia Nowa Kol.\/lost)","District":" Lutsk","region":" Volyn","geometry":"505402|251825"},{"name":"Werbtsche-Maloje (Werbcze Male\/Male Verbche)","District":" Sarny","region":" Rivne","geometry":"511255|261811"},{"name":"Arnsberg (Goslaw)","District":" Koszalin","region":" Zachodniopomorskie","geometry":"535945|164645"},{"name":"Michalowo","District":" Bialystok","region":" Podlaskie","geometry":"530212|233603"},{"name":"Petschanowka (Peczanowka\/Pechanivka)","District":" Zhytomyr","region":" Zhytomyr","geometry":"500425|274736"},{"name":"Zyck Polskie","District":" Plock","region":" Mazowieckie","geometry":"522506|195551"},{"name":"Okopy","District":" Chelm","region":" Lubelskie","geometry":"511053|234618"},{"name":"Schaefer (Lipovka)","District":" Engels","region":" Saratov","geometry":"513147|463651"},{"name":"Chlebiotki","District":" Nowy Dwor Mazowiecki","region":" Mazowieckie","geometry":"523526|204430"},{"name":"Prochorowka (Prochorowka\/Prokhorivka)","District":" Khmelnytskyi","region":" Khmelnytskyi","geometry":"495212|271107"},{"name":"Schoenbrod (Czystochleb)","District":" Wabrzezno","region":" Kujawsko-Pomorskie","geometry":"531508|185553"},{"name":"Pugatschewka (Puhaczowka\/Puhachivka)","District":" Korosten","region":" Zhytomyr","geometry":"505210|282323"},{"name":"Orchowek","District":" Wlodawa","region":" Lubelskie","geometry":"513126|233419"},{"name":"Jaegerndorf (Krnov)","District":" Bruntal","region":" Moravskoslezsky","geometry":"500523|174214"},{"name":"Wrotynia (lost)","District":" Torun","region":" Kujawsko-Pomorskie","geometry":"525826|184637"},{"name":"Wladyslawow (Garwolin gmina)","District":" Garwolin","region":" Mazowieckie","geometry":"515406|212624"},{"name":"Kazimierow","District":" Konin","region":" Wielkopolskie","geometry":"520632|181218"},{"name":"Rudno","District":" Otwock","region":" Mazowieckie","geometry":"520503|213028"},{"name":"Zakroczym-Galachy (Galachy)","District":" Nowy Dwor Mazowiecki","region":" Mazowieckie","geometry":"522600|203752"},{"name":"Rehwalde (Rywald)","District":" Starogard Gdanski","region":" Pomorskie","geometry":"535901|183638"},{"name":"Ostrower Kaempe\/Ehrenthal (Ostrow Swiecki)","District":" Chelmo","region":" Kujawsko-Pomorskie","geometry":"532420|183015"},{"name":"Shilinzy (Zylince\/Zhylyntsi)","District":" Khmelnytskyi","region":" Khmelnytskyi","geometry":"491600|265251"},{"name":"Michalkowzy (Michalkowce\/Mykhalkivtsi)","District":" Rivne","region":" Rivne","geometry":"502915|263405"},{"name":"Paleschken (Polaszki)","District":" Sztum","region":" Pomorskie","geometry":"535128|190351"},{"name":"Izbica Kujawska (Izbica)","District":" Wloclawek","region":" Kujawsko-Pomorskie","geometry":"522515|184548"},{"name":"Wandlauszen\/Wandlauschen\/Rotenkamp (Osinovka)","District":" Ozersk","region":" Kaliningrad","geometry":"543020|220320"},{"name":"Wiesenfeld\/Korneyewka\/Komintern (lost)","District":" Novomoskovsk","region":" Dnipropetrovsk","geometry":"484639|345721"},{"name":"Garbnick (Garbnik)","District":" Ketrzyn","region":" Warminsko-Mazurskie","geometry":"541123|211604"},{"name":"Tlumacz (Tlumacz\/Tlumach)","District":" Ivano-Frankivsk","region":" Ivano-Frankivsk","geometry":"485151|245955"},{"name":"Slobodka-Kultschijewezkaja (Slobodka Kulczyjowiecka\/Slobidka-Kulchijevetska)","District":" Kamianets-Podilskyi","region":" K","geometry":"263912|x"},{"name":"Giesdorf (Godzinowice)","District":" Olawa","region":" Dolnoslaskie","geometry":"505438|171530"},{"name":"Protassowo (Protasovo)","District":" German National District","region":" Altai Krai","geometry":"532521|791021"},{"name":"Dabrowica","District":" Bilgoraj","region":" Lubelskie","geometry":"503233|223930"},{"name":"Gusari (-\/N of Stashky)","District":" Korosten","region":" Zhytomyr","geometry":"512043|284850"},{"name":"Przatow Dolny&Gorny","District":" Zdunska Wola","region":" Lodzkie","geometry":"514046|190114"},{"name":"Burtschak Kol. (Burczak Kol.\/lost)","District":" Novohrad-Volynskyi","region":" Zhytomyr","geometry":"504245|273608"},{"name":"Czerniatyn (Velykyi Cherniatyn)","District":" Khmelnytskyi","region":" Khmelnytskyi","geometry":"494710|270423"},{"name":"Korschew (Korszow\/Korshiv)","District":" Rivne","region":" Rivne","geometry":"502723|261303"},{"name":"Sholobnoje (Zolobne\/Zholobne)","District":" Novohrad-Volynskyi","region":" Zhytomyr","geometry":"502900|272200"},{"name":"Johannesdorf\/Molochnaja (lost)","District":" Stavropol","region":" Stavropol","geometry":"450426|414850"},{"name":"Hrubieszow-Poberezany (Poberezany)","District":" Hrubieszow","region":" Lubelskie","geometry":"504745|235314"},{"name":"Hundsdorf\/Deutsch Chelmitz (Chelmiec-Chelmiec Niemiecki)","District":" Nowy Sacz","region":" Malopolskie","geometry":"493732|203937"},{"name":"Tichotin (Tychotyn\/Tykhotyn)","District":" Lutsk","region":" Volyn","geometry":"505838|250349"},{"name":"Jusefowka (Jozefowka\/Yosypivka)","District":" Khmelnytskyi","region":" Khmelnytskyi","geometry":"494620|273557"},{"name":"Kiselewka (Kisielowka\/Kyselivka)","District":" Kamianets-Podilskyi","region":" Khmelnytskyi","geometry":"484809|263252"},{"name":"Moosberg (Moosberg\/lost)","District":" Yavoriv","region":" Lviv","geometry":"495344|233137"},{"name":"Gorschtschik Kol. (Horszczyk Kol.\/Horshchyk)","District":" Korosten","region":" Zhytomyr","geometry":"505343|281739"},{"name":"Staro-Miropol (Stary Miropol\/Miropol-Staro-Miropol)","District":" Zhytomyr","region":" Zhytomyr","geometry":"500611|274257"},{"name":"Stara Ruda (Ruda)","District":" Konin","region":" Wielkopolskie","geometry":"522435|182330"},{"name":"Gross Rogau (Rogowo)","District":" Torun","region":" Kujawsko-Pomorskie","geometry":"530445|184406"},{"name":"Blichowo","District":" Plock","region":" Mazowieckie","geometry":"523334|200005"},{"name":"Leninfeld (Chinarli)","District":" Shamkir","region":" Samkir","geometry":"404634|460652"},{"name":"Barkowice","District":" Piotrkow Trybunalski","region":" Lodzkie","geometry":"512336|195021"},{"name":"Gotowka (Gotowka Niemiecka)","District":" Chelm","region":" Lubelskie","geometry":"511042|233225"},{"name":"Rudelsdorf (Radzikow)","District":" Dzierzoniow","region":" Dolnoslaskie","geometry":"504839|165114"},{"name":"Bielsk (Bielsk)","District":" Tczew","region":" Pomorskie","geometry":"534726|184315"},{"name":"Grigorowka (Hryhorowka\/Hryhorivka)","District":" Khmelnytskyi","region":" Khmelnytskyi","geometry":"494332|271048"},{"name":"Anusinek","District":" Legionowo","region":" Mazowieckie","geometry":"522254|210133"},{"name":"Ederkehmen\/Edern (Podlipkovo)","District":" Krasnoznamensk","region":" Kaliningrad","geometry":"544400|221500"},{"name":"Tschajkowka (Czajkowka\/Chaikivka)","District":" Zhytomyr","region":" Zhytomyr","geometry":"503207|290558"},{"name":"Kadlubowo","District":" Plonsk","region":" Mazowieckie","geometry":"523552|201018"},{"name":"Raskidajlowka (-\/Rozkydailivka)","District":" Zhytomyr","region":" Zhytomyr","geometry":"501420|290255"},{"name":"Priesen (Brezno)","District":" Chomutov","region":" Ustecky","geometry":"502407|132517"},{"name":"Maryninski Majdan Kol. (Maryninski Majdan Kol.\/lost)","District":" Rivne","region":" Rivne","geometry":"504846|270434"},{"name":"Slugi","District":" Leczyca","region":" Lodzkie","geometry":"520505|192110"},{"name":"Pogutken (Pogodki)","District":" Starogard Gdanski","region":" Pomorskie","geometry":"540132|181925"},{"name":"Dubowka (Debowka\/Dubivka)","District":" Warash","region":" Rivne","geometry":"512529|261410"},{"name":"Korzen Krolewski","District":" Plock","region":" Mazowieckie","geometry":"522544|193724"},{"name":"Komornica","District":" Legionowo","region":" Mazowieckie","geometry":"522815|205544"},{"name":"Tschestitz (Cestice)","District":" Rychov nad Kneznou","region":" Kralovehradecky","geometry":"500740|160845"},{"name":"Bergbruch (Liszkowice)","District":" Inowroclaw","region":" Kujawsko-Pomorskie","geometry":"525548|181500"},{"name":"Rogienice Wielkie","District":" Kolno","region":" Podlaskie","geometry":"531620|220452"},{"name":"Syberia","District":" Brzeziny","region":" Lodzkie","geometry":"515040|194613"},{"name":"Rogowko Rumunki (lost)","District":" Rypin","region":" Kujawsko-Pomorskie","geometry":"525805|192100"},{"name":"Chastan (Chrastany)","District":" Ceske Budejovice","region":" Jihocesky","geometry":"491746|142315"},{"name":"Radewitsch (Radowice)","District":" Zielona Gora","region":" Lubuskie","geometry":"520236|154138"},{"name":"Guta-Selenizkaja (Huta Zielenicka\/Huta-Zelenytska)","District":" Novohrad-Volynskyi","region":" Zhytomyr","geometry":"504530|281300"},{"name":"Mokrsko","District":" Wielun","region":" Lodzkie","geometry":null},{"name":"Dybow","District":" Poddebice","region":" Lodzkie","geometry":"514943|184639"},{"name":"Fedorowka-Chutor\/Bauernheim (Peremozhne)","District":" Shchastinskyi","region":" Luhansk","geometry":"490510|385550"},{"name":"Semerinki (Semerynki\/Semerynske)","District":" Volodymyr-Volynskyi","region":" Volyn","geometry":"504920|245120"},{"name":"Shelon (Zolon\/Poliske)","District":" Korosten","region":" Zhytomyr","geometry":"512119|283857"},{"name":"Martinowka (Martynovka)","District":" Tarasovskyy","region":" Rostov","geometry":"483934|403721"},{"name":"Ak-Tasch (lost)","District":" Pervomaiske","region":" Crimea","geometry":"454842|340501"},{"name":"Osowiec","District":" Slupca","region":" Wielkopolskie","geometry":"522908|180306"},{"name":"Gross Schoenwalde (Szynwald)","District":" Grudziadz","region":" Kujawsko-Pomorskie","geometry":"533455|190607"},{"name":"Fischerbabke (Rybina)","District":" Nowy Dwor Gdanski","region":" Pomorskie","geometry":"541724|190702"},{"name":"Wreschen (Wrzesnia)","District":" Wrzesnia","region":" Wielkopolskie","geometry":"521933|173403"},{"name":"Hohenhausen (Trzebien)","District":" Bydgoszcz","region":" Kujawsko-Pomorskie","geometry":"531757|180918"},{"name":"Marxheim\/Marnaul\/Marneuli (Marneuli)","District":" ","region":" Kvemo Kartli","geometry":"412921|444813"},{"name":"Schmollen (Smolna)","District":" Olesnica","region":" Dolnoslaskie","geometry":"510928|172544"},{"name":"Gross Paglau (Pawlowo)","District":" Gdansk","region":" Pomorskie","geometry":"540802|182425"},{"name":"Wenzken (Wiecki)","District":" Wegorzewo","region":" Warminsko-Mazurskie","geometry":"541540|215001"},{"name":"Bielowes (Beloves)","District":" Nachod","region":" Kralovehradecky","geometry":"502500|161100"},{"name":"Hilarow","District":" Kolo","region":" Wielkopolskie","geometry":"521027|184755"},{"name":"Molomolinzy (Malomolice\/Molomolyntsi)","District":" Khmelnytskyi","region":" Khmelnytskyi","geometry":"493157|271252"},{"name":"Marszewo Vorwerk (Marszewo)","District":" Srem","region":" Wielkopolskie","geometry":"520257|165820"},{"name":"Zurawiniec","District":" Gostynin","region":" Mazowieckie","geometry":"522219|192238"},{"name":"Wola Mikorska","District":" Belchatow","region":" Lodzkie","geometry":"512409|191836"},{"name":"Koziebrody","District":" Plonsk","region":" Mazowieckie","geometry":"524807|195953"},{"name":"Gross Brodsende (Brudzedy Wielkie)","District":" Elblag","region":" Warminsko-Mazurskie","geometry":"540026|192440"},{"name":"Storchnest (Osieczna)","District":" Leszno","region":" Wielkopolskie","geometry":"515412|164034"},{"name":"Kamenni-Maidan (Kamienny Majdan\/Kamianyi Maidan)","District":" Novohrad-Volynskyi","region":" Zhytomyr","geometry":"503100|275300"},{"name":"Duga (new\/Duha)","District":" Novohrad-Volynskyi","region":" Zhytomyr","geometry":"504330|281430"},{"name":"Jezow","District":" Brzeziny","region":" Lodzkie","geometry":"514846|195805"},{"name":"Wasilowka (Wesolowka)","District":" Suwalki","region":" Podlaskie","geometry":"535938|224201"},{"name":"Bernsdorf (Brzeznica)","District":" Lobez","region":" Zachodniopomorskie","geometry":"533115|154225"},{"name":"Trautliebersdorf (Kochanow)","District":" Kamienna Gora","region":" Dolnoslaskie","geometry":"504143|160857"},{"name":"Schoelen (Vetrovo)","District":" Bagrationovsk","region":" Kaliningrad","geometry":"543340|200700"},{"name":"Ryshow (Ryzow\/Ryzhiv)","District":" Zhytomyr","region":" Zhytomyr","geometry":"500549|281615"},{"name":"Trzebuchow","District":" Kolo","region":" Wielkopolskie","geometry":"521835|183716"},{"name":"Gustawow","District":" Radom","region":" Mazowieckie","geometry":"512902|210148"},{"name":"Branna (Horni Branna)","District":" Semily","region":" Liberecky","geometry":"503630|153418"},{"name":"Lesowoje (-\/Lisove\/Olevsk)","District":" Korosten","region":" Zhytomyr","geometry":"510823|272530"},{"name":"Niedergrund (Dolni Podluzi)","District":" Decin","region":" Ustecky","geometry":"505245|143547"},{"name":"Bruennow (Bronowo)","District":" Slupsk","region":" Pomorskie","geometry":"541534|170030"},{"name":"Kratzig (Krasnik Lobeski)","District":" Lobez","region":" Zachodniopomorskie","geometry":"533453|153227"},{"name":"Asbest (Asbest)","District":" Asbest","region":" Sverdlovsk","geometry":"562833|603128"}]